time,millis,ax,ay,az,rollrate,pitchrate,yawrate,roll,pitch,yaw,speed,course,latitude,longitude,altitude,pdop,hdop,vdop,epe,fix,satellites_view,satellites_used,temp
82802500,1.39825E+12,-0.4216,-0.0392,-9.6589,-0.6956,-2.0173,-0.2086,1.7718,-4.2198,-79.354,34.06,290.93,51.044935,13.77761,117.74,3.9,1.74,3.49,1.84,3,9,6,41.01
82802500,1.39825E+12,-1.0884,-0.5883,-10.2375,-0.8347,-3.2,-0.2782,2.0113,-4.8247,-79.4023,34.06,290.93,51.044935,13.77761,117.74,3.9,1.74,3.49,1.84,3,9,6,41.01
82802500,1.39825E+12,-0.9806,-0.3628,-9.5805,-1.0434,-1.5304,-0.2086,1.9184,-4.9317,-79.493,34.06,290.93,51.044938,13.777597,117.74,3.9,1.74,3.49,1.84,3,9,6,41.01
82802600,1.39825E+12,-1.5003,-0.5099,-10.0806,-0.5565,-3.1304,-0.1391,1.9049,-5.4766,-79.5726,34.13,290.75,51.044938,13.777597,117.77,3.9,1.74,3.49,1.84,3,9,6,41.01
82802600,1.39825E+12,-0.9904,-0.7844,-9.7374,-0.8347,-1.7391,0,2.2424,-5.1644,-79.6809,34.13,290.75,51.044938,13.777597,117.77,3.9,1.74,3.49,1.84,3,9,6,41.01
82802600,1.39825E+12,-0.1863,-0.2745,-9.6785,-0.626,-0.6956,-0.0695,1.9426,-5.2374,-79.8378,34.13,290.75,51.044938,13.777597,117.77,3.9,1.74,3.49,1.84,3,9,6,41.01
82802600,1.39825E+12,-0.402,-0.451,-9.9629,-1.113,-2.4347,-0.2782,2.027,-4.6637,-79.9803,34.13,290.75,51.044938,13.777597,117.77,3.9,1.74,3.49,1.84,3,9,6,41.01
82802600,1.39825E+12,-0.402,-0.3726,-9.453,-1.5304,-2.4347,-0.4869,2.8005,-5.0368,-80.0518,34.13,290.75,51.044942,13.777584,117.77,3.9,1.74,3.49,1.84,3,9,6,41.01
82802700,1.39825E+12,0.3235,-0.1176,-9.5314,-1.4608,-1.0434,-0.4869,2.6855,-5.0416,-80.1548,34.2299,290.27,51.044942,13.777584,117.79,3.9,1.74,3.49,1.84,3,9,6,41.01
82802700,1.39825E+12,-0.6373,-0.2745,-9.855,-1.3913,-2.5739,-0.4173,2.4631,-4.9373,-80.3175,34.2299,290.27,51.044942,13.777584,117.79,3.9,1.74,3.49,1.84,3,9,6,41.01
82802700,1.39825E+12,-0.9413,-0.3039,-10.2669,-1.8782,-3.2,-0.4173,2.8812,-4.5756,-80.3636,34.2299,290.27,51.044942,13.777584,117.79,3.9,1.74,3.49,1.84,3,9,6,41.01
82802700,1.39825E+12,-0.5687,-0.706,-9.404,-1.9478,-1.6695,-0.3478,2.6447,-4.7335,-80.4725,34.2299,290.27,51.044942,13.777584,117.79,3.9,1.74,3.49,1.84,3,9,6,41.01
82802700,1.39825E+12,-1.3042,-0.6079,-9.7864,-2.3652,-2.9217,-0.2782,2.526,-5.5534,-80.5439,34.2299,290.27,51.044945,13.777571,117.79,3.9,1.74,3.49,1.85,3,9,6,41.01
82802800,1.39825E+12,-1.6474,-0.4608,-9.7276,-1.8782,-2.713,-0.1391,1.8464,-5.0747,-80.6415,34.6,290.24,51.044945,13.777571,117.79,3.9,1.74,3.49,1.85,3,9,6,41.01
82802800,1.39825E+12,-0.3922,-0.4216,-9.7079,-1.3913,-2.2956,-0.1391,1.6583,-5.0508,-80.8408,34.6,290.24,51.044945,13.777571,117.79,3.9,1.74,3.49,1.85,3,9,6,41.01
82802800,1.39825E+12,-0.4903,-0.2451,-9.6981,-0.9043,-1.0434,0,1.2542,-5.0702,-81.0996,34.6,290.24,51.044945,13.777571,117.79,3.9,1.74,3.49,1.85,3,9,6,41.01
82802800,1.39825E+12,-0.3432,-0.2843,-10.6984,-0.9043,-2.8521,-0.0695,0.9582,-4.3828,-81.3344,34.6,290.24,51.044945,13.777571,117.79,3.9,1.74,3.49,1.85,3,9,6,41.01
82802800,1.39825E+12,-0.1274,-0.2451,-9.3745,-0.7652,-2.0869,-0.4173,1.3767,-4.6882,-81.4947,34.6,290.24,51.044948,13.777558,117.79,3.9,1.74,3.49,1.85,3,9,6,41.01
82802900,1.39825E+12,-0.0294,0.1863,-10.159,-0.5565,-2.0869,-0.5565,0.9766,-5.0694,-81.7394,34.64,290.07,51.044948,13.777558,117.79,3.9,1.74,3.49,1.85,3,9,6,41.01
82802900,1.39825E+12,-0.2843,0.1667,-9.1392,-0.2086,-2.4347,-0.2782,0.961,-4.607,-81.9116,34.64,290.07,51.044948,13.777558,117.79,3.9,1.74,3.49,1.85,3,9,6,41.01
82802900,1.39825E+12,-1.2257,-0.5687,-10.4826,-0.9043,-4.3826,-0.4173,2.3752,-4.6687,-82.0146,34.64,290.07,51.044948,13.777558,117.79,3.9,1.74,3.49,1.85,3,9,6,41.01
82802900,1.39825E+12,-0.7256,-1.1178,-9.757,-1.6695,-2.2956,-0.2782,2.9982,-4.7744,-82.0244,34.64,290.07,51.044948,13.777558,117.79,3.9,1.74,3.49,1.85,3,9,6,41.01
82802900,1.39825E+12,-1.1276,-0.7158,-9.1,-2.0173,-2.226,-0.4173,2.8785,-4.5741,-82.1079,34.64,290.07,51.044951,13.777545,117.79,3.9,1.74,3.49,1.85,3,9,6,41.01
82803000,1.39825E+12,-1.5591,-0.5785,-9.4432,-1.6,-2.8521,-0.2086,2.7689,-5.3077,-82.1703,35.12,289.65,51.044951,13.777545,117.79,3.9,1.74,3.49,1.85,3,9,6,41.01
82803000,1.39825E+12,-0.8923,-0.0588,-9.4922,-1.9478,-2.2956,-0.1391,2.1119,-5.017,-82.2119,35.12,289.65,51.044951,13.777545,117.79,3.9,1.74,3.49,1.85,3,9,6,41.01
82803000,1.39825E+12,-0.1372,-0.2353,-9.4334,-1.3217,-0.9739,-0.2782,1.968,-4.9548,-82.2738,35.12,289.65,51.044951,13.777545,117.79,3.9,1.74,3.49,1.85,3,9,6,41.01
82803000,1.39825E+12,-0.6766,-0.4412,-10.1982,-1.113,-2.3652,-0.2086,1.7726,-4.6002,-82.3648,35.12,289.65,51.044951,13.777545,117.79,3.9,1.74,3.49,1.85,3,9,6,41.01
82803000,1.39825E+12,-0.6766,0.147,-9.502,-1.3217,-2.8521,-0.3478,1.4544,-4.6969,-82.4378,35.12,289.65,51.044953,13.777531,117.79,3.9,1.74,3.49,1.85,3,9,6,41.01
82803100,1.39825E+12,0.1765,0.2745,-9.5608,-1.1826,-1.1826,-0.4869,1.2937,-4.9322,-82.4414,35.09,291.17,51.044953,13.777531,117.79,3.9,1.74,3.49,1.85,3,9,6,41.01
82803100,1.39825E+12,-0.2353,0.2059,-10.4238,-0.8347,-2.5043,-0.4173,1.2421,-4.5925,-82.4911,35.09,291.17,51.044953,13.777531,117.79,3.9,1.74,3.49,1.85,3,9,6,41.01
82803100,1.39825E+12,-0.4706,-0.5589,-9.5608,-0.6956,-2.2956,-0.2782,2.1555,-4.4812,-82.3809,35.09,291.17,51.044953,13.777531,117.79,3.9,1.74,3.49,1.85,3,9,6,41.01
82803100,1.39825E+12,-1.1473,-0.451,-10.2473,-1.2521,-2.9913,-0.2782,1.7978,-4.2074,-82.4044,35.09,291.17,51.044953,13.777531,117.79,3.9,1.74,3.49,1.85,3,9,6,41.01
82803100,1.39825E+12,-0.8433,-0.6079,-9.9335,-1.113,-1.3913,-0.1391,1.7957,-4.3278,-82.3731,35.09,291.17,51.044957,13.777518,117.79,3.9,1.74,3.49,1.85,3,9,6,41.01
82803200,1.39825E+12,-0.8531,-0.7158,-9.0607,-0.626,-1.6,-0.1391,2.1502,-4.4808,-82.334,35.2,290.61,51.044957,13.777518,117.74,3.9,1.74,3.49,1.85,3,9,6,41.01
82803200,1.39825E+12,-1.3728,-0.4608,-10.0806,-1.113,-2.1565,-0.1391,1.986,-4.476,-82.2932,35.2,290.61,51.044957,13.777518,117.74,3.9,1.74,3.49,1.85,3,9,6,41.01
82803200,1.39825E+12,-0.5197,-0.2745,-10.5022,-0.7652,-1.7391,-0.2086,1.8925,-3.9463,-82.2817,35.2,290.61,51.044957,13.777518,117.74,3.9,1.74,3.49,1.85,3,9,6,41.01
82803200,1.39825E+12,-0.147,-0.2745,-10.1296,-1.3913,-1.3913,0,1.8919,-3.9504,-82.2689,35.2,290.61,51.044957,13.777518,117.74,3.9,1.74,3.49,1.85,3,9,6,41.01
82803200,1.39825E+12,-0.6766,-0.1078,-9.9237,-1.9478,-2.6434,-0.1391,1.8845,-3.955,-82.2535,35.2,290.61,51.04496,13.777505,117.74,3.9,1.74,3.49,1.85,3,9,6,41.01
82803300,1.39825E+12,-0.8629,-0.0098,-9.7962,-1.9478,-2.9217,-0.4869,1.8677,-3.9788,-82.2363,35.26,291.22,51.04496,13.777505,117.71,3.9,1.74,3.49,1.85,3,9,6,41.01
82803300,1.39825E+12,-0.1667,0.1274,-9.6981,-1.3217,-1.9478,-0.5565,1.8555,-4.002,-82.2207,35.26,291.22,51.04496,13.777505,117.71,3.9,1.74,3.49,1.85,3,9,6,41.01
82803300,1.39825E+12,0.3235,0.2451,-9.5216,-1.3913,-1.9478,-0.4173,1.8466,-4.0129,-82.2054,35.26,291.22,51.04496,13.777505,117.71,3.9,1.74,3.49,1.85,3,9,6,41.01
82803300,1.39825E+12,-0.4118,-0.5491,-9.3059,-1.113,-2.5043,-0.4173,1.8508,-4.0325,-82.1899,35.26,291.22,51.04496,13.777505,117.71,3.9,1.74,3.49,1.85,3,9,6,41.01
82803300,1.39825E+12,-1.108,-0.6079,-10.0119,-1.3217,-3.826,-0.4173,1.8397,-4.0581,-82.1788,35.26,291.22,51.044963,13.777492,117.71,3.91,1.74,3.49,1.85,3,9,6,41.01
82803400,1.39825E+12,-0.7256,-0.7158,-9.2667,-1.6695,-2.0173,-0.4173,1.8291,-4.0973,-82.1669,35.36,291.46,51.044963,13.777492,117.68,3.91,1.74,3.49,1.85,3,9,6,41.01
82803400,1.39825E+12,-0.6471,-0.7158,-9.4922,-1.6,-2.1565,-0.1391,1.8169,-4.1214,-82.1573,35.36,291.46,51.044963,13.777492,117.68,3.91,1.74,3.49,1.85,3,9,6,41.01
82803400,1.39825E+12,-1.3434,-0.3824,-10.414,-1.2521,-2.713,-0.1391,1.4627,-4.5209,-82.2818,35.36,291.46,51.044963,13.777492,117.68,3.91,1.74,3.49,1.85,3,9,6,41.01
82803400,1.39825E+12,-0.9315,-0.4706,-9.7668,-1.3217,-2.0869,-0.1391,1.6171,-3.9311,-82.3344,35.36,291.46,51.044963,13.777492,117.68,3.91,1.74,3.49,1.85,3,9,6,41.01
82803400,1.39825E+12,-0.5197,0.3137,-9.9335,-1.4608,-0.4173,-0.1391,1.2076,-4.4655,-82.4722,35.36,291.46,51.044966,13.777479,117.68,3.9,1.74,3.49,1.85,3,9,6,41.01
82803500,1.39825E+12,-0.4216,-0.0784,-10.1002,-1.6,-1.1826,0,0.9317,-4.6204,-82.6237,35.6599,292.05,51.044966,13.777479,117.65,3.9,1.74,3.49,1.85,3,9,6,41.01
82803500,1.39825E+12,-1.0982,-0.3824,-10.0119,-1.2521,-2.2956,-0.2782,1.2116,-4.6979,-82.7493,35.6599,292.05,51.044966,13.777479,117.65,3.9,1.74,3.49,1.85,3,9,6,41.01
82803500,1.39825E+12,0.0882,-0.2451,-9.806,-1.1826,-3.1304,-0.2086,1.7268,-4.0654,-82.7575,35.6599,292.05,51.044966,13.777479,117.65,3.9,1.74,3.49,1.85,3,9,6,41.01
82803500,1.39825E+12,0.2157,0.098,-9.5412,-0.9739,-1.6695,-0.2782,1.5819,-4.0894,-82.8562,35.6599,292.05,51.044966,13.777479,117.65,3.9,1.74,3.49,1.85,3,9,6,41.06
82803500,1.39825E+12,0.2255,-0.098,-9.9727,-0.7652,-2.1565,-0.4173,1.7834,-4.501,-82.9609,35.6599,292.05,51.044969,13.777466,117.65,3.9,1.74,3.49,1.85,3,9,6,41.06
82803600,1.39825E+12,-1.2061,-0.5001,-10.2767,-0.1391,-3.5478,-0.2086,1.5355,-4.3389,-83.0547,35.7299,292.39,51.044969,13.777466,117.64,3.9,1.74,3.49,1.85,3,9,6,41.06
82803600,1.39825E+12,-0.8727,-0.2255,-9.2667,-0.626,-3.2695,-0.4173,1.2291,-4.3023,-83.1725,35.7299,292.39,51.044969,13.777466,117.64,3.9,1.74,3.49,1.85,3,9,6,41.06
82803600,1.39825E+12,-0.6275,-0.5393,-10.2571,-0.8347,-2.9913,-0.4173,2.032,-4.4469,-83.2153,35.7299,292.39,51.044969,13.777466,117.64,3.9,1.74,3.49,1.85,3,9,6,41.06
82803600,1.39825E+12,-0.2157,-0.5393,-9.0019,-0.9043,-1.113,-0.2086,1.9502,-4.3288,-83.3791,35.7299,292.39,51.044969,13.777466,117.64,3.9,1.74,3.49,1.85,3,9,6,41.06
82803600,1.39825E+12,-1.5591,-0.6373,-10.5611,-0.9043,-3.4782,-0.2086,2.1453,-4.9306,-83.4986,35.7299,292.39,51.044972,13.777453,117.64,3.9,1.74,3.49,1.85,3,9,6,41.06
82803700,1.39825E+12,-1.4022,-0.5589,-9.2863,-1.113,-2.5739,0,2.38,-4.8327,-83.5447,36.26,292.14,51.044972,13.777453,117.61,3.9,1.74,3.49,1.85,3,9,6,41.06
82803700,1.39825E+12,-0.9707,-0.2059,-10.7964,-0.9739,-3.6173,0,1.9332,-4.5256,-83.6626,36.26,292.14,51.044972,13.777453,117.61,3.9,1.74,3.49,1.85,3,9,6,41.06
82803700,1.39825E+12,-0.3726,-0.1765,-9.2961,-1.113,-1.4608,-0.1391,1.9077,-5.0765,-83.7395,36.26,292.14,51.044972,13.777453,117.61,3.9,1.74,3.49,1.85,3,9,6,41.06
82803700,1.39825E+12,-1.1375,-0.2255,-10.9043,-1.4608,-2.9913,0,2.09,-4.6038,-83.7756,36.26,292.14,51.044972,13.777453,117.61,3.9,1.74,3.49,1.85,3,9,6,41.06
82803700,1.39825E+12,-1.6768,-0.1568,-10.4434,-1.3913,-3.6173,-0.1391,1.4916,-4.831,-83.8786,36.26,292.14,51.044975,13.77744,117.61,1.74,1.45,0.96,1.85,3,9,6,41.06
82803800,1.39825E+12,-0.6177,0.0098,-9.1098,-1.1826,-1.3913,-0.2086,1.4149,-4.3218,-83.9562,35.95,292.5899,51.044975,13.77744,117.61,1.74,1.45,0.96,1.85,3,9,6,41.06
82803800,1.39825E+12,-0.049,0.2353,-9.0902,-1.0434,-1.1826,-0.3478,1.4041,-4.8435,-84.0368,35.95,292.5899,51.044975,13.77744,117.61,1.74,1.45,0.96,1.85,3,9,6,41.06
82803800,1.39825E+12,-0.4118,-0.1961,-9.6295,-1.113,-1.113,-0.3478,1.8255,-4.602,-84.0477,35.95,292.5899,51.044975,13.77744,117.61,1.74,1.45,0.96,1.85,3,9,6,41.06
82803800,1.39825E+12,-0.1568,-0.3726,-9.198,-0.9739,-1.1826,-0.4173,1.9114,-4.1283,-84.1371,35.95,292.5899,51.044975,13.77744,117.61,1.74,1.45,0.96,1.85,3,9,6,41.06
82803800,1.39825E+12,-1.0688,-0.5001,-10.3944,-1.1826,-3.0608,-0.3478,1.963,-4.3283,-84.2623,35.95,292.5899,51.044979,13.777426,117.61,3.91,1.74,3.49,1.86,3,9,6,41.06
82803900,1.39825E+12,-0.2353,-0.3628,-8.2861,-1.2521,-0.4173,-0.3478,1.9324,-4.7454,-84.2844,35.97,292.12,51.044979,13.777426,117.6,3.91,1.74,3.49,1.86,3,9,6,41.06
82803900,1.39825E+12,-0.4314,-0.6471,-9.7766,-0.6956,-0.3478,-0.4869,2.3332,-5.2693,-84.3297,35.97,292.12,51.044979,13.777426,117.6,3.91,1.74,3.49,1.86,3,9,6,41.06
82803900,1.39825E+12,-0.8923,-0.7256,-9.8844,-0.9739,-0.2086,-0.2782,2.7771,-5.1341,-84.3722,35.97,292.12,51.044979,13.777426,117.6,3.91,1.74,3.49,1.86,3,9,6,41.06
82803900,1.39825E+12,-1.3042,-0.402,-9.9433,-1.3217,-1.5304,-0.4869,2.6279,-4.9139,-84.4645,35.97,292.12,51.044979,13.777426,117.6,3.91,1.74,3.49,1.86,3,9,6,41.06
82803900,1.39825E+12,-1.7062,-0.7648,-11.3357,-1.8782,-2.4347,-0.2086,2.7185,-4.4716,-84.6325,35.97,292.12,51.044982,13.777413,117.6,3.91,1.74,3.49,1.86,3,9,6,41.06
82804000,1.39825E+12,-0.7452,-0.3922,-8.9333,-2.2956,-0.0695,-0.0695,2.3602,-5.0879,-84.8727,36.1,291.91,51.044982,13.777413,117.59,3.91,1.74,3.49,1.86,3,9,6,41.06
82804000,1.39825E+12,-0.5197,-0.5883,-10.0315,-3.2,-0.8347,0,2.7291,-4.8484,-85.0374,36.1,291.91,51.044982,13.777413,117.59,3.91,1.74,3.49,1.86,3,9,6,41.06
82804000,1.39825E+12,-0.5491,-0.1568,-10.7474,-2.713,-2.226,-0.0695,1.5764,-4.3601,-85.3339,36.1,291.91,51.044982,13.777413,117.59,3.91,1.74,3.49,1.86,3,9,6,41.06
82804000,1.39825E+12,-1.6179,0.2157,-11.5711,-2.0173,-3.5478,-0.2086,0.4232,-3.8358,-85.6258,36.1,291.91,51.044982,13.777413,117.59,3.91,1.74,3.49,1.86,3,9,6,41.06
82804000,1.39825E+12,-0.2843,-0.3137,-10.4924,-2.0173,-2.713,0,1.0761,-3.5953,-85.7999,36.1,291.91,51.044985,13.7774,117.59,3.91,1.74,3.49,1.86,3,9,6,41.06
82804100,1.39825E+12,0.2353,0.0882,-8.8842,-1.3217,-0.9043,-0.4173,0.8526,-3.6855,-86.0245,36.2,291.64,51.044985,13.7774,117.57,3.91,1.74,3.49,1.86,3,9,6,41.06
82804100,1.39825E+12,-0.4314,0.2059,-9.7374,-0.626,-3.2,-0.626,0.2241,-4.9016,-86.294,36.2,291.64,51.044985,13.7774,117.57,3.91,1.74,3.49,1.86,3,9,6,41.06
82804100,1.39825E+12,-0.5295,-0.0882,-9.4432,-0.626,-3.7565,-0.5565,1.0883,-4.1587,-86.4436,36.2,291.64,51.044985,13.7774,117.57,3.91,1.74,3.49,1.86,3,9,6,41.06
82804100,1.39825E+12,-0.2059,-0.3432,-10.5513,-0.4869,-4.2434,-0.4869,1.3248,-3.6893,-86.7327,36.2,291.64,51.044985,13.7774,117.57,3.91,1.74,3.49,1.86,3,9,6,41.06
82804100,1.39825E+12,-0.0588,-0.9217,-9.0117,-0.9739,-4.5913,-0.5565,2.025,-4.3332,-86.8135,36.2,291.64,51.044989,13.777386,117.57,3.91,1.74,3.5,1.86,3,9,6,41.06
82804200,1.39825E+12,-0.5883,-0.6864,-10.0021,-1.6,-4.5913,-0.4173,2.5553,-4.9197,-86.8938,36.15,291.66,51.044989,13.777386,117.55,3.91,1.74,3.5,1.86,3,9,6,41.06
82804200,1.39825E+12,-0.3137,-0.2353,-8.9921,-1.9478,-2.8521,-0.2086,1.5535,-4.8495,-86.9901,36.15,291.66,51.044989,13.777386,117.55,3.91,1.74,3.5,1.86,3,9,6,41.06
82804200,1.39825E+12,-0.1274,-0.6962,-10.8651,-1.6,-3.3391,-0.5565,1.6402,-4.4543,-87.0927,36.15,291.66,51.044989,13.777386,117.55,3.91,1.74,3.5,1.86,3,9,6,41.06
82804200,1.39825E+12,-1.1571,-0.4706,-9.7079,-1.9478,-3.0608,-0.2782,2.3599,-4.4634,-87.0869,36.15,291.66,51.044989,13.777386,117.55,3.91,1.74,3.5,1.86,3,9,6,41.06
82804200,1.39825E+12,-1.6278,0.0294,-9.855,-1.8086,-4.1043,-0.4869,1.7487,-5.2432,-87.1214,36.15,291.66,51.044992,13.777373,117.55,3.91,1.74,3.49,1.87,3,9,6,41.06
82804300,1.39825E+12,-1.2943,0.0882,-9.8158,-2.4347,-3.0608,-0.3478,1.3309,-5.3013,-87.0814,36.19,291.48,51.044992,13.777373,117.54,3.91,1.74,3.49,1.87,3,9,6,41.06
82804300,1.39825E+12,-1.7062,-0.2549,-10.4042,-1.6695,-2.5739,-0.2086,1.7649,-6.1113,-86.9982,36.19,291.48,51.044992,13.777373,117.54,3.91,1.74,3.49,1.87,3,9,6,41.06
82804300,1.39825E+12,-0.9315,-0.0294,-9.3157,-2.6434,-1.3913,0.2086,1.3845,-5.3607,-86.9786,36.19,291.48,51.044992,13.777373,117.54,3.91,1.74,3.49,1.87,3,9,6,41.06
82804300,1.39825E+12,-1.2061,-0.3628,-10.3944,-1.6695,-2.3652,0.2086,1.6149,-5.2885,-86.9307,36.19,291.48,51.044992,13.777373,117.54,3.91,1.74,3.49,1.87,3,9,6,41.06
82804300,1.39825E+12,-1.7454,0.0588,-10.7964,-2.5739,-3.4086,0.6956,1.7671,-4.8915,-86.9194,36.19,291.48,51.044996,13.77736,117.54,3.91,1.74,3.5,1.87,3,9,6,41.06
82804400,1.39825E+12,-1.8631,-0.098,-10.5218,-1.7391,-3.4086,0.3478,0.9038,-5.2588,-86.9911,36.25,291.0899,51.044996,13.77736,117.52,3.91,1.74,3.5,1.87,3,9,6,41.06
82804400,1.39825E+12,-0.3235,-0.402,-8.7175,-1.5304,-0.5565,0.2782,1.5342,-5.2432,-86.8244,36.25,291.0899,51.044996,13.77736,117.52,3.91,1.74,3.5,1.87,3,9,6,41.06
82804400,1.39825E+12,0.0588,-0.5589,-8.7568,-1.0434,-0.9043,0.0695,2.6369,-4.5252,-86.6928,36.25,291.0899,51.044996,13.77736,117.52,3.91,1.74,3.5,1.87,3,9,6,41.06
82804400,1.39825E+12,-0.3432,0.1176,-10.0413,-1.2521,-1.3913,-0.1391,1.2005,-4.2458,-86.8124,36.25,291.0899,51.044996,13.77736,117.52,3.91,1.74,3.5,1.87,3,9,6,41.06
82804400,1.39825E+12,-0.6962,-0.6177,-10.2375,-0.6956,-2.9217,-0.0695,2.4104,-4.7112,-86.8602,36.25,291.0899,51.044999,13.777346,117.52,3.91,1.74,3.5,1.87,3,9,6,41.06
82804500,1.39825E+12,-0.4412,-0.4706,-9.2274,-0.9043,-2.226,-0.2782,2.2656,-4.7154,-86.7717,36.2299,291.11,51.044999,13.777346,117.51,3.91,1.74,3.5,1.87,3,9,6,41.06
82804500,1.39825E+12,-1.0296,-0.8727,-10.1296,0.1391,-3.3391,-0.4173,2.1069,-4.9872,-86.7045,36.2299,291.11,51.044999,13.777346,117.51,3.91,1.74,3.5,1.87,3,9,6,41.06
82804500,1.39825E+12,-0.6766,-0.5197,-8.7077,-1.0434,-1.4608,-0.1391,2.1305,-4.556,-86.5261,36.2299,291.11,51.044999,13.777346,117.51,3.91,1.74,3.5,1.87,3,9,6,41.06
82804500,1.39825E+12,-0.2353,-0.5295,-9.2667,-0.4869,-1.4608,-0.2086,1.7495,-4.3059,-86.4254,36.2299,291.11,51.044999,13.777346,117.51,3.91,1.74,3.5,1.87,3,9,6,41.06
82804500,1.39825E+12,-0.5295,-0.5981,-9.0215,-0.626,-0.9739,-0.4173,2.0212,-4.4928,-86.3403,36.2299,291.11,51.045002,13.777333,117.51,3.91,1.74,3.5,1.87,3,9,6,41.06
82804600,1.39825E+12,-0.9119,-0.5393,-8.7175,-0.7652,-0.8347,-0.1391,1.9462,-5.39,-86.1351,36.27,290.86,51.045002,13.777333,117.49,3.91,1.74,3.5,1.87,3,9,6,41.06
82804600,1.39825E+12,-1.3238,-0.6668,-9.6785,-0.9739,-1.5304,0.1391,1.8295,-4.5177,-85.9646,36.27,290.86,51.045002,13.777333,117.49,3.91,1.74,3.5,1.87,3,9,6,41.06
82804600,1.39825E+12,-1.1767,-0.3824,-9.7962,-1.3913,-1.4608,0.1391,2.3214,-4.8178,-85.7979,36.27,290.86,51.045002,13.777333,117.49,3.91,1.74,3.5,1.87,3,9,6,41.06
82804600,1.39825E+12,-1.108,-0.0294,-10.0315,-0.9043,-0.5565,0.1391,1.9622,-4.505,-85.748,36.27,290.86,51.045002,13.777333,117.49,3.91,1.74,3.5,1.87,3,9,6,41.06
82804600,1.39825E+12,-1.3826,0.0784,-9.6687,-1.5304,-0.6956,0.0695,1.2647,-5.0445,-85.612,36.27,290.86,51.045006,13.777319,117.49,3.91,1.74,3.5,1.88,3,9,6,41.06
82804700,1.39825E+12,-1.2159,-0.2059,-10.3159,-1.1826,-0.8347,0.2782,1.6722,-4.447,-85.3841,36.27,290.7799,51.045006,13.777319,117.47,3.91,1.74,3.5,1.88,3,9,6,41.06
82804700,1.39825E+12,-0.8139,0.0196,-9.404,-1.0434,-0.4173,0.0695,1.3301,-4.752,-85.2688,36.27,290.7799,51.045006,13.777319,117.47,3.91,1.74,3.5,1.88,3,9,6,41.06
82804700,1.39825E+12,-0.8727,-0.1568,-10.3551,-1.2521,-0.9739,0.0695,1.2407,-4.6081,-85.2004,36.27,290.7799,51.045006,13.777319,117.47,3.91,1.74,3.5,1.88,3,9,6,41.06
82804700,1.39825E+12,-1.3238,-0.0882,-10.4238,-1.6,-2.226,0.2086,1.8429,-5.1878,-85.0935,36.27,290.7799,51.045006,13.777319,117.47,3.91,1.74,3.5,1.88,3,9,6,41.06
82804700,1.39825E+12,-1.1571,0.0588,-10.2375,-1.3913,-2.4347,0.1391,1.0033,-4.7181,-85.0406,36.27,290.7799,51.045009,13.777306,117.47,3.91,1.74,3.5,1.88,3,9,6,41.06
82804800,1.39825E+12,-1.2747,0.0098,-9.9237,-1.3217,-2.4347,0.2782,1.4292,-4.9594,-84.9251,36.6599,290.41,51.045009,13.777306,117.45,3.91,1.74,3.5,1.88,3,9,6,41.06
82804800,1.39825E+12,-1.3042,-0.1863,-10.1002,-1.7391,-2.5043,0.2086,1.5405,-4.2183,-84.7493,36.6599,290.41,51.045009,13.777306,117.45,3.91,1.74,3.5,1.88,3,9,6,41.06
82804800,1.39825E+12,-0.7354,-0.0294,-9.5903,-1.1826,-2.0869,0.3478,1.1375,-4.1559,-84.7084,36.6599,290.41,51.045009,13.777306,117.45,3.91,1.74,3.5,1.88,3,9,6,41.06
82804800,1.39825E+12,-0.6864,-0.3039,-9.1784,-0.626,-2.2956,0.2782,1.6397,-4.347,-84.5937,36.6599,290.41,51.045009,13.777306,117.45,3.91,1.74,3.5,1.88,3,9,6,41.06
82804800,1.39825E+12,-1.108,-0.7648,-9.4628,-0.8347,-2.6434,0.0695,2.5083,-5.011,-84.3139,36.6599,290.41,51.045012,13.777292,117.45,3.91,1.74,3.5,1.89,3,9,6,41.06
82804900,1.39825E+12,-0.4608,-0.4903,-9.2471,-1.6695,-2.2956,0,2.4496,-4.4683,-84.1643,36.72,290.77,51.045012,13.777292,117.45,3.91,1.74,3.5,1.89,3,9,6,41.06
82804900,1.39825E+12,-0.5197,-0.3922,-9.0902,-1.113,-2.3652,0.0695,2.5197,-4.5375,-83.9655,36.72,290.77,51.045012,13.777292,117.45,3.91,1.74,3.5,1.89,3,9,6,41.06
82804900,1.39825E+12,-0.6668,-0.5981,-9.6197,-0.9043,-2.0869,-0.2086,2.5729,-4.7404,-83.7303,36.72,290.77,51.045012,13.777292,117.45,3.91,1.74,3.5,1.89,3,9,6,41.06
82804900,1.39825E+12,-1.0002,-0.4903,-9.7668,-0.6956,-2.9217,-0.0695,2.1406,-5.1008,-83.5549,36.72,290.77,51.045012,13.777292,117.45,3.91,1.74,3.5,1.89,3,9,6,41.06
82804900,1.39825E+12,-0.5393,-0.6373,-9.1392,-0.3478,-1.8782,-0.2782,2.0755,-4.6966,-83.3067,36.72,290.77,51.045016,13.777278,117.45,3.91,1.74,3.5,1.89,3,9,6,41.06
82805000,1.39825E+12,-0.706,-0.3039,-8.8352,-0.1391,-2.226,-0.1391,1.8537,-5.0257,-83.0603,37.12,291.06,51.045016,13.777278,117.43,3.91,1.74,3.5,1.89,3,9,6,41.06
82805000,1.39825E+12,-0.4706,-0.3824,-10.1394,0.2086,-2.2956,-0.0695,1.8224,-4.8034,-82.8647,37.12,291.06,51.045016,13.777278,117.43,3.91,1.74,3.5,1.89,3,9,6,41.06
82805000,1.39825E+12,-0.4706,-0.9119,-9.6687,-0.3478,-1.8782,0,3.5119,-4.8679,-82.6206,37.12,291.06,51.045016,13.777278,117.43,3.91,1.74,3.5,1.89,3,9,6,41.06
82805000,1.39825E+12,-0.5785,-0.7746,-9.1392,-0.5565,-2.0173,0.2086,3.3617,-4.9135,-82.5503,37.12,291.06,51.045016,13.777278,117.43,3.91,1.74,3.5,1.89,3,9,6,41.06
82805000,1.39825E+12,-1.0296,-0.7256,-9.3647,-0.4869,-2.0173,0,2.7009,-5.5261,-82.4884,37.12,291.06,51.045019,13.777264,117.43,3.91,1.74,3.5,1.9,3,9,6,41.06
82805100,1.39825E+12,-0.402,-0.6373,-9.1,-0.3478,-1.1826,0.0695,2.3767,-5.6014,-82.3474,37.69,291.2,51.045019,13.777264,117.41,3.91,1.74,3.5,1.9,3,9,6,41.06
82805100,1.39825E+12,-0.6373,-0.4903,-9.5216,-0.6956,-1.5304,0.1391,2.3349,-4.9531,-82.3173,37.69,291.2,51.045019,13.777264,117.41,3.91,1.74,3.5,1.9,3,9,6,41.06
82805100,1.39825E+12,-0.4608,-0.402,-9.6589,-0.9043,-1.7391,-0.0695,2.2414,-4.7087,-82.2822,37.69,291.2,51.045019,13.777264,117.41,3.91,1.74,3.5,1.9,3,9,6,41.06
82805100,1.39825E+12,-0.4903,-0.7746,-9.2765,-0.7652,-1.8782,-0.0695,2.868,-4.7727,-82.1877,37.69,291.2,51.045019,13.777264,117.41,3.91,1.74,3.5,1.9,3,9,6,41.06
82805100,1.39825E+12,-0.6962,-0.4216,-8.8842,-1.1826,-1.5304,-0.0695,2.7356,-5.4038,-82.0481,37.69,291.2,51.045023,13.77725,117.41,3.91,1.74,3.5,1.9,3,9,6,41.06
82805200,1.39825E+12,-0.7746,-0.402,-9.7962,-1.0434,-2.5739,-0.0695,2.0515,-4.6807,-81.9683,37.69,291.99,51.045023,13.77725,117.39,3.91,1.74,3.5,1.9,3,9,6,41.06
82805200,1.39825E+12,-1.0884,-0.5687,-9.6197,-1.1826,-1.6,-0.0695,2.6398,-5.3611,-81.7833,37.69,291.99,51.045023,13.77725,117.39,3.91,1.74,3.5,1.9,3,9,6,41.06
82805200,1.39825E+12,-0.6766,-0.2647,-10.0021,-1.0434,-1.9478,0.3478,1.5294,-4.5294,-81.8273,37.69,291.99,51.045023,13.77725,117.39,3.91,1.74,3.5,1.9,3,9,6,41.06
82805200,1.39825E+12,-1.2257,-0.5099,-9.9923,-0.9043,-2.9913,0.2086,1.7289,-5.0812,-81.8232,37.69,291.99,51.045023,13.77725,117.39,3.91,1.74,3.5,1.9,3,9,6,41.06
82805200,1.39825E+12,-1.0688,-0.6373,-9.1,-1.2521,-2.0173,0.1391,2.4941,-5.582,-81.6206,37.69,291.99,51.045027,13.777236,117.39,3.91,1.74,3.5,1.9,3,9,6,41.06
82805300,1.39825E+12,-0.5001,-0.098,-8.7273,-1.3217,-1.6,0,1.7208,-6.0067,-81.5971,38.22,291.91,51.045027,13.777236,117.38,3.91,1.74,3.5,1.9,3,9,6,41.06
82805300,1.39825E+12,-1.1963,-0.402,-10.1492,-1.3217,-2.6434,0.2086,2.5606,-5.8956,-81.3559,38.22,291.91,51.045027,13.777236,117.38,3.91,1.74,3.5,1.9,3,9,6,41.06
82805300,1.39825E+12,-1.1865,0,-10.1786,-1.3217,-2.226,0,1.6173,-5.4198,-81.3847,38.22,291.91,51.045027,13.777236,117.38,3.91,1.74,3.5,1.9,3,9,6,41.06
82805300,1.39825E+12,-1.108,0,-9.8746,-1.3217,-1.8782,0,1.2257,-5.647,-81.4444,38.22,291.91,51.045027,13.777236,117.38,3.91,1.74,3.5,1.9,3,9,6,41.06
82805300,1.39825E+12,-1.3434,-0.2059,-9.7177,-1.3913,-2.3652,0,1.3661,-6.0653,-81.1858,38.22,291.91,51.04503,13.777222,117.38,3.91,1.74,3.5,1.91,3,9,6,41.06
82805400,1.39825E+12,-0.9904,-0.2255,-9.2961,-1.2521,-1.3913,-0.1391,1.3,-5.7895,-81.0304,38.55,292.01,51.04503,13.777222,117.36,3.91,1.74,3.5,1.91,3,9,6,41.06
82805400,1.39825E+12,-1.0786,-0.0294,-10.3748,-1.4608,-1.8782,0.0695,1.4246,-5.4518,-80.854,38.55,292.01,51.04503,13.777222,117.36,3.91,1.74,3.5,1.91,3,9,6,41.06
82805400,1.39825E+12,-0.8139,0.0784,-9.9139,-1.0434,-1.4608,0.1391,1.4914,-5.4428,-80.7903,38.55,292.01,51.04503,13.777222,117.36,3.91,1.74,3.5,1.91,3,9,6,41.06
82805400,1.39825E+12,-1.1276,-0.0686,-10.0708,-1.7391,-1.8782,0.0695,1.7224,-5.3974,-80.6975,38.55,292.01,51.04503,13.777222,117.36,3.91,1.74,3.5,1.91,3,9,6,41.06
82805400,1.39825E+12,-1.4611,0.1372,-10.3649,-1.6,-2.1565,0.0695,1.5662,-5.6198,-80.6943,38.55,292.01,51.045033,13.777208,117.36,3.91,1.74,3.5,1.91,3,9,6,41.06
82805500,1.39825E+12,-1.3434,0.098,-10.0315,-1.8782,-1.6,0.1391,1.7499,-6.1224,-80.5929,38.86,292.18,51.045033,13.777208,117.35,3.91,1.74,3.5,1.91,3,9,6,41.06
82805500,1.39825E+12,-0.6864,-0.049,-9.2569,-1.9478,-1.1826,0.1391,2.0908,-5.3332,-80.4693,38.86,292.18,51.045033,13.777208,117.35,3.91,1.74,3.5,1.91,3,9,6,41.06
82805500,1.39825E+12,-1.3826,-0.3235,-10.4336,-1.0434,-2.7826,-0.0695,2.041,-5.7889,-80.4199,38.86,292.18,51.045033,13.777208,117.35,3.91,1.74,3.5,1.91,3,9,6,41.06
82805500,1.39825E+12,-1.2355,0.0882,-9.7079,-2.0869,-1.5304,0.1391,1.8987,-5.7896,-80.3633,38.86,292.18,51.045033,13.777208,117.35,3.91,1.74,3.5,1.91,3,9,6,41.09
82805500,1.39825E+12,-1.2061,0.1078,-10.5022,-1.3913,-2.0173,0.2782,1.2611,-6.1037,-80.575,38.86,292.18,51.045037,13.777194,117.35,3.91,1.74,3.5,1.91,3,9,6,41.09
82805600,1.39825E+12,-1.2257,0.2255,-9.5314,-1.0434,-0.9043,0.0695,1.153,-6.7002,-80.6113,38.9,292.66,51.045037,13.777194,117.35,3.91,1.74,3.5,1.91,3,9,6,41.09
82805600,1.39825E+12,-0.6177,0.1176,-10.1688,-0.9739,-1.113,0.1391,1.6031,-5.8534,-80.6803,38.9,292.66,51.045037,13.777194,117.35,3.91,1.74,3.5,1.91,3,9,6,41.09
82805600,1.39825E+12,-0.7158,-0.2451,-9.5412,-1.3913,-0.9043,0.1391,2.337,-5.3838,-80.4834,38.9,292.66,51.045037,13.777194,117.35,3.91,1.74,3.5,1.91,3,9,6,41.09
82805600,1.39825E+12,-0.7942,-0.147,-9.4824,-1.113,-1.4608,0.2782,2.2266,-5.3979,-80.3774,38.9,292.66,51.045037,13.777194,117.35,3.91,1.74,3.5,1.91,3,9,6,41.09
82805600,1.39825E+12,-1.2453,-0.1961,-9.757,-0.9739,-1.3913,0.3478,1.4153,-5.8175,-80.3353,38.9,292.66,51.045041,13.777179,117.35,3.91,1.74,3.5,1.91,3,9,6,41.09
82805700,1.39825E+12,-0.8237,-0.1961,-9.3353,-0.6956,-1.113,0.0695,1.4935,-5.7132,-80.1892,39.02,291.8,51.045041,13.777179,117.34,3.91,1.74,3.5,1.91,3,9,6,41.09
82805700,1.39825E+12,-0.2255,-0.0882,-9.6393,-1.0434,-0.9043,0.2086,1.7245,-5.5294,-80.3519,39.02,291.8,51.045041,13.777179,117.34,3.91,1.74,3.5,1.91,3,9,6,41.09
82805700,1.39825E+12,-0.8727,-0.1667,-9.7668,-1.0434,-1.0434,0.0695,2.0299,-6.3956,-80.3834,39.02,291.8,51.045041,13.777179,117.34,3.91,1.74,3.5,1.91,3,9,6,41.09
82805700,1.39825E+12,-0.6864,0.1372,-9.806,-0.3478,-1.3217,0.0695,1.8477,-5.8253,-80.4822,39.02,291.8,51.045041,13.777179,117.34,3.91,1.74,3.5,1.91,3,9,6,41.09
82805700,1.39825E+12,-0.2353,-0.2843,-9.2176,-0.9739,-0.9043,-0.0695,2.1483,-5.5191,-80.4098,39.02,291.8,51.045044,13.777165,117.34,3.91,1.74,3.5,1.91,3,9,6,41.09
82805800,1.39825E+12,-0.5687,-0.2059,-9.7177,-0.7652,-1.3913,0.0695,2.2273,-5.1025,-80.3372,39.08,291.56,51.045044,13.777165,117.34,3.91,1.74,3.5,1.91,3,9,6,41.09
82805800,1.39825E+12,-0.8433,0.5393,-8.237,0,-1.1826,-0.1391,-0.1336,-6.2947,-80.5139,39.08,291.56,51.045044,13.777165,117.34,3.91,1.74,3.5,1.91,3,9,6,41.09
82805800,1.39825E+12,0.3137,0.0784,-8.1292,1.2521,-0.626,-0.1391,-1.1121,-5.4405,-80.4828,39.08,291.56,51.045044,13.777165,117.34,3.91,1.74,3.5,1.91,3,9,6,41.09
82805800,1.39825E+12,0.353,-0.402,-10.7572,1.1826,-0.9043,-0.2782,0.4159,-5.0903,-80.3917,39.08,291.56,51.045044,13.777165,117.34,3.91,1.74,3.5,1.91,3,9,6,41.09
82805800,1.39825E+12,-0.3726,-1.0982,-10.5218,-0.8347,-2.5043,-0.0695,3.2543,-4.6479,-80.2027,39.08,291.56,51.045048,13.77715,117.34,3.91,1.74,3.5,1.91,3,9,6,41.09
82805900,1.39825E+12,-0.5589,-1.1767,-8.9136,-1.9478,-2.4347,0.2782,5.3418,-5.2414,-80.0087,39.14,291.37,51.045048,13.77715,117.34,3.91,1.74,3.5,1.91,3,9,6,41.09
82805900,1.39825E+12,-1.0394,-0.2451,-7.9429,-1.6,-1.9478,0.3478,3.2274,-6.1788,-80.1412,39.14,291.37,51.045048,13.77715,117.34,3.91,1.74,3.5,1.91,3,9,6,41.09
82805900,1.39825E+12,-1.0688,-0.6177,-11.022,-1.8782,-3.4086,0.3478,2.5957,-5.5743,-80.2276,39.14,291.37,51.045048,13.77715,117.34,3.91,1.74,3.5,1.91,3,9,6,41.09
82805900,1.39825E+12,-0.0294,-0.1078,-9.3451,-1.6695,-2.3652,0.0695,2.4759,-4.4728,-80.2708,39.14,291.37,51.045048,13.77715,117.34,3.91,1.74,3.5,1.91,3,9,6,41.09
82805900,1.39825E+12,-0.8629,-0.0392,-9.9335,-1.3913,-4.1043,0.1391,2.5508,-4.9622,-80.3503,39.14,291.37,51.045052,13.777135,117.34,3.91,1.74,3.5,1.91,3,9,6,41.09
82806000,1.39825E+12,-2.2848,-1.5591,-10.4336,-1.6,-4.5217,0,3.2075,-5.4121,-80.3425,39.24,291.33,51.045052,13.777135,117.34,3.91,1.74,3.5,1.91,3,9,6,41.09
82806000,1.39825E+12,-1.1473,0,-9.5412,-0.9043,-3.5478,0.1391,2.9234,-6.0803,-80.3509,39.24,291.33,51.045052,13.777135,117.34,3.91,1.74,3.5,1.91,3,9,6,41.09
82806000,1.39825E+12,-1.3728,-0.2255,-8.8646,-1.113,-2.5739,0.0695,1.6435,-6.2737,-80.3659,39.24,291.33,51.045052,13.777135,117.34,3.91,1.74,3.5,1.91,3,9,6,41.09
82806000,1.39825E+12,-0.1078,0.3235,-10.1296,-0.5565,-3.6173,0.2782,0.1954,-4.5434,-80.6388,39.24,291.33,51.045052,13.777135,117.34,3.91,1.74,3.5,1.91,3,9,6,41.09
82806000,1.39825E+12,-0.4314,-0.0588,-9.2176,0.1391,-3.4086,0.4869,0.4872,-5.3008,-80.9111,39.24,291.33,51.045055,13.777121,117.34,3.91,1.74,3.5,1.91,3,9,6,41.09
82806100,1.39825E+12,-0.6668,-0.0882,-9.0215,-0.4173,-2.9217,0.0695,1.7566,-5.8653,-80.8143,39.3,291.64,51.045055,13.777121,117.33,3.91,1.74,3.5,1.91,3,9,6,41.09
82806100,1.39825E+12,-2.02,-1.1963,-9.8648,-0.9043,-3.2,0.1391,3.4804,-6.8341,-80.6387,39.3,291.64,51.045055,13.777121,117.33,3.91,1.74,3.5,1.91,3,9,6,41.09
82806100,1.39825E+12,-1.6768,-0.5589,-9.6197,-1.9478,-1.4608,0,3.6715,-6.8435,-80.4616,39.3,291.64,51.045055,13.777121,117.33,3.91,1.74,3.5,1.91,3,9,6,41.09
82806100,1.39825E+12,-0.098,-0.5589,-8.8744,-0.626,-1.3217,0,2.6029,-4.9478,-80.6241,39.3,291.64,51.045055,13.777121,117.33,3.91,1.74,3.5,1.91,3,9,6,41.09
82806100,1.39825E+12,-1.9121,-0.7158,-9.9433,-0.9043,-3.1304,-0.2086,3.1863,-6.0855,-80.6161,39.3,291.64,51.045059,13.777106,117.33,3.91,1.74,3.5,1.91,3,9,6,41.09
82806200,1.39825E+12,-1.9121,-1.5297,-9.6883,-2.6434,-1.3913,0.0695,2.9749,-5.9368,-80.6067,39.39,291.81,51.045059,13.777106,117.33,3.91,1.74,3.5,1.91,3,9,6,41.09
82806200,1.39825E+12,-0.7648,-1.0198,-10.3355,-2.4347,-2.0869,0.2086,3.6678,-6.0457,-80.4527,39.39,291.81,51.045059,13.777106,117.33,3.91,1.74,3.5,1.91,3,9,6,41.09
82806200,1.39825E+12,-1.5395,-1.2943,-9.9237,-2.7826,-2.1565,0.4173,3.9585,-5.3232,-80.3376,39.39,291.81,51.045059,13.777106,117.33,3.91,1.74,3.5,1.91,3,9,6,41.09
82806200,1.39825E+12,-0.5687,-0.4804,-10.2669,-1.3217,-2.7826,0.3478,3.1292,-4.8262,-80.4702,39.39,291.81,51.045059,13.777106,117.33,3.91,1.74,3.5,1.91,3,9,6,41.09
82806200,1.39825E+12,-1.9121,-0.8727,-9.8844,-2.7826,-2.5043,0.5565,3.0875,-5.9175,-80.6006,39.39,291.81,51.045063,13.777091,117.33,3.91,1.74,3.5,1.91,3,9,6,41.09
82806300,1.39825E+12,-0.9315,-0.1274,-10.3944,-3.3391,-1.1826,0.4869,2.1275,-5.5826,-80.7743,39.49,291.6,51.045063,13.777091,117.32,3.91,1.74,3.5,1.91,3,9,6,41.09
82806300,1.39825E+12,-1.4709,0.2745,-10.0806,-2.3652,-1.8782,0.3478,1.4064,-6.4727,-80.9544,39.49,291.6,51.045063,13.777091,117.32,3.91,1.74,3.5,1.91,3,9,6,41.09
82806300,1.39825E+12,-0.1372,-0.2059,-9.7472,-1.5304,-0.5565,0.4173,1.6551,-4.8817,-80.9116,39.49,291.6,51.045063,13.777091,117.32,3.91,1.74,3.5,1.91,3,9,6,41.09
82806300,1.39825E+12,-0.804,0.147,-9.9237,-1.2521,-0.5565,0.4173,1.1786,-5.4116,-81.0749,39.49,291.6,51.045063,13.777091,117.32,3.91,1.74,3.5,1.91,3,9,6,41.09
82806300,1.39825E+12,-0.402,0.4608,-10.5807,-2.2956,-0.5565,0.626,1.1084,-4.9393,-81.1895,39.49,291.6,51.045067,13.777077,117.32,3.91,1.74,3.5,1.92,3,9,6,41.09
82806400,1.39825E+12,-1.1276,-0.0392,-10.1002,-1.6695,-1.5304,0.4173,1.5592,-5.3359,-81.3187,39.56,291.41,51.045067,13.777077,117.31,3.91,1.74,3.5,1.92,3,9,6,41.09
82806400,1.39825E+12,-0.3628,-0.2353,-9.0411,-1.1826,-0.5565,0.626,1.8313,-5.2483,-81.3425,39.56,291.41,51.045067,13.777077,117.31,3.91,1.74,3.5,1.92,3,9,6,41.09
82806400,1.39825E+12,-0.049,-0.706,-8.8352,-0.7652,-0.9739,0.5565,2.6246,-4.7078,-81.413,39.56,291.41,51.045067,13.777077,117.31,3.91,1.74,3.5,1.92,3,9,6,41.09
82806400,1.39825E+12,-0.5001,-0.1961,-9.1686,-0.626,-0.8347,0.5565,2.6416,-5.392,-81.5271,39.56,291.41,51.045067,13.777077,117.31,3.91,1.74,3.5,1.92,3,9,6,41.09
82806400,1.39825E+12,-0.0294,-0.2059,-9.0313,-0.5565,-1.0434,0.4173,2.51,-5.0817,-81.5232,39.56,291.41,51.04507,13.777062,117.31,3.91,1.74,3.5,1.92,3,9,6,41.09
82806500,1.39825E+12,-0.3922,-0.0588,-9.453,-0.2086,-1.6695,0.3478,2.3341,-4.9385,-81.5994,39.65,291.31,51.04507,13.777062,117.3,3.91,1.74,3.5,1.92,3,9,6,41.09
82806500,1.39825E+12,-0.5589,-0.147,-9.7177,-0.2782,-1.7391,0.5565,2.4735,-5.4434,-81.6297,39.65,291.31,51.04507,13.777062,117.3,3.91,1.74,3.5,1.92,3,9,6,41.09
82806500,1.39825E+12,-0.8531,-0.0392,-9.7177,0.2086,-2.3652,0.4173,1.9752,-4.9961,-81.5956,39.65,291.31,51.04507,13.777062,117.3,3.91,1.74,3.5,1.92,3,9,6,41.09
82806500,1.39825E+12,-0.8335,-0.4412,-9.3647,0.2086,-2.713,0.626,2.4771,-4.295,-81.5109,39.65,291.31,51.04507,13.777062,117.3,3.91,1.74,3.5,1.92,3,9,6,41.09
82806500,1.39825E+12,-1.2061,-0.5589,-9.3353,0.1391,-2.5043,0.6956,2.7204,-5.3274,-81.4301,39.65,291.31,51.045074,13.777047,117.3,3.91,1.74,3.5,1.92,3,9,6,41.09
82806600,1.39825E+12,-0.9315,-0.8433,-9.4236,-0.3478,-2.0869,0.5565,3.3471,-4.8393,-81.354,40.1599,291.7,51.045074,13.777047,117.3,3.91,1.74,3.5,1.92,3,9,6,41.09
82806600,1.39825E+12,-1.3826,-1.0296,-9.9531,-0.9043,-3.2,0.6956,3.6707,-5.6053,-81.493,40.1599,291.7,51.045074,13.777047,117.3,3.91,1.74,3.5,1.92,3,9,6,41.09
82806600,1.39825E+12,-1.3924,-0.5687,-9.198,-1.113,-1.113,0.8347,2.8179,-5.8682,-81.5882,40.1599,291.7,51.045074,13.777047,117.3,3.91,1.74,3.5,1.92,3,9,6,41.09
82806600,1.39825E+12,-1.2453,-0.5687,-10.5611,-0.5565,-2.9913,0.6956,2.458,-5.7799,-81.7107,40.1599,291.7,51.045074,13.777047,117.3,3.91,1.74,3.5,1.92,3,9,6,41.09
82806600,1.39825E+12,-1.0002,-0.9806,-9.8844,-1.3913,-2.0869,0.7652,3.4245,-5.5478,-81.4914,40.1599,291.7,51.045079,13.777032,117.3,3.91,1.74,3.5,1.92,3,9,6,41.09
82806700,1.39825E+12,-1.1963,-0.7942,-10.6493,-1.4608,-3.1304,0.9043,3.056,-4.9844,-81.4816,40.17,291.65,51.045079,13.777032,117.3,3.91,1.74,3.5,1.92,3,9,6,41.09
82806700,1.39825E+12,-1.5591,-0.9217,-10.2865,-0.6956,-2.7826,0.7652,3.0615,-5.301,-81.441,40.17,291.65,51.045079,13.777032,117.3,3.91,1.74,3.5,1.92,3,9,6,41.09
82806700,1.39825E+12,-0.5883,-0.3628,-9.8648,-1.113,-2.5043,0.7652,2.8348,-4.3692,-81.3917,40.17,291.65,51.045079,13.777032,117.3,3.91,1.74,3.5,1.92,3,9,6,41.09
82806700,1.39825E+12,-0.8531,-0.1961,-9.8844,-1.3217,-2.226,0.6956,2.2582,-4.5244,-81.3961,40.17,291.65,51.045079,13.777032,117.3,3.91,1.74,3.5,1.92,3,9,6,41.09
82806700,1.39825E+12,-0.5393,-0.5785,-9.6589,-1.2521,-1.4608,0.626,3.0077,-4.3823,-81.2723,40.17,291.65,51.045082,13.777017,117.3,1.74,1.45,0.96,1.92,3,9,6,41.09
82806800,1.39825E+12,-0.4608,-0.5883,-9.6589,-1.2521,-1.1826,0.7652,3.4937,-4.6982,-81.1954,40.46,291.04,51.045082,13.777017,117.3,1.74,1.45,0.96,1.92,3,9,6,41.09
82806800,1.39825E+12,-0.2941,-0.4706,-9.6099,-1.3217,-1.4608,0.7652,3.4453,-4.9139,-81.1189,40.46,291.04,51.045082,13.777017,117.3,1.74,1.45,0.96,1.92,3,9,6,41.09
82806800,1.39825E+12,-0.706,-0.4804,-9.1784,-1.6695,-1.0434,0.7652,3.2633,-4.9774,-81.0721,40.46,291.04,51.045082,13.777017,117.3,1.74,1.45,0.96,1.92,3,9,6,41.09
82806800,1.39825E+12,-0.755,-0.0392,-9.3353,-1.113,-1.2521,0.6956,2.4964,-5.0487,-81.1076,40.46,291.04,51.045082,13.777017,117.3,1.74,1.45,0.96,1.92,3,9,6,41.09
82806800,1.39825E+12,-1.1571,-0.2745,-9.3843,-0.3478,-2.2956,0.626,2.3718,-5.3215,-81.0869,40.46,291.04,51.045086,13.777002,117.3,1.74,1.45,0.96,1.91,3,9,6,41.09
82806900,1.39825E+12,-1.0786,-0.4608,-9.2667,-0.5565,-1.6695,0.5565,2.668,-5.0434,-81.0364,40.93,291.91,51.045086,13.777002,117.24,1.74,1.45,0.96,1.91,3,9,6,41.09
82806900,1.39825E+12,-1.0198,-0.3137,-9.4726,-0.0695,-2.5739,0.5565,2.0632,-4.8841,-81.0709,40.93,291.91,51.045086,13.777002,117.24,1.74,1.45,0.96,1.91,3,9,6,41.09
82806900,1.39825E+12,-1.3826,-0.5883,-9.7766,-0.5565,-2.5043,0.4869,2.4155,-4.7076,-81.089,40.93,291.91,51.045086,13.777002,117.24,1.74,1.45,0.96,1.91,3,9,6,41.09
82806900,1.39825E+12,-1.1178,-0.8727,-9.8746,-0.8347,-2.3652,0.6956,3.3205,-5.3831,-81.0559,40.93,291.91,51.045086,13.777002,117.24,1.74,1.45,0.96,1.91,3,9,6,41.09
82806900,1.39825E+12,-1.0296,-0.8237,-10.2375,-1.1826,-2.9217,0.626,3.4359,-5.0197,-81.0711,40.93,291.91,51.04509,13.776987,117.24,3.91,1.74,3.5,1.92,3,9,6,41.09
82807000,1.39825E+12,-1.314,-0.9119,-10.0315,-1.5304,-3.2695,0.7652,3.3284,-5.1179,-81.1108,41.54,291.08,51.04509,13.776987,117.27,3.91,1.74,3.5,1.92,3,9,6,41.09
82807000,1.39825E+12,-0.7746,-0.6177,-10.3453,-1.8086,-2.8521,0.8347,3.153,-4.8079,-81.0889,41.54,291.08,51.04509,13.776987,117.27,3.91,1.74,3.5,1.92,3,9,6,41.09
82807000,1.39825E+12,-1.5199,-0.5197,-11.0612,-1.7391,-3.8956,0.8347,3.0204,-4.7869,-81.1436,41.54,291.08,51.04509,13.776987,117.27,3.91,1.74,3.5,1.92,3,9,6,41.09
82807000,1.39825E+12,-0.6962,-0.4314,-10.5709,-2.226,-2.713,0.8347,3.2113,-5.0064,-81.0793,41.54,291.08,51.04509,13.776987,117.27,3.91,1.74,3.5,1.92,3,9,6,41.09
82807000,1.39825E+12,-0.3334,-0.402,-9.4922,-1.2521,-2.3652,0.4869,2.754,-4.9901,-81.0925,41.54,291.08,51.045093,13.776971,117.27,3.91,1.74,3.5,1.92,3,9,6,41.09
82807100,1.39825E+12,-0.5785,-0.6275,-9.6393,-1.3913,-2.1565,0.6956,3.1571,-5.5344,-81.1368,41.67,290.92,51.045093,13.776971,117.25,3.91,1.74,3.5,1.92,3,9,6,41.09
82807100,1.39825E+12,-0.3628,-0.5687,-9.6785,-1.3913,-2.2956,0.7652,3.539,-5.5922,-81.1504,41.67,290.92,51.045093,13.776971,117.25,3.91,1.74,3.5,1.92,3,9,6,41.09
82807100,1.39825E+12,-0.8923,-0.0294,-10.0806,-0.8347,-2.4347,0.8347,2.4528,-5.9976,-81.3026,41.67,290.92,51.045093,13.776971,117.25,3.91,1.74,3.5,1.92,3,9,6,41.09
82807100,1.39825E+12,-0.7648,-0.5785,-8.7666,-1.1826,-2.1565,0.6956,4.0313,-5.6953,-81.031,41.67,290.92,51.045093,13.776971,117.25,3.91,1.74,3.5,1.92,3,9,6,41.09
82807100,1.39825E+12,-1.0884,-0.3235,-10.0021,-1.3913,-1.6695,0.9739,3.5757,-5.5122,-81.0025,41.67,290.92,51.045097,13.776956,117.25,3.91,1.74,3.5,1.92,3,9,6,41.09
82807200,1.39825E+12,-1.5101,-0.3824,-9.6589,-1.113,-2.4347,0.9739,2.9815,-6.043,-80.9683,42.35,291.05,51.045097,13.776956,117.23,3.91,1.74,3.5,1.92,3,9,6,41.09
82807200,1.39825E+12,-1.412,-0.8335,-9.0509,-1.0434,-1.7391,1.113,3.4213,-5.812,-80.8644,42.35,291.05,51.045097,13.776956,117.23,3.91,1.74,3.5,1.92,3,9,6,41.09
82807200,1.39825E+12,-1.5591,-0.4216,-9.2372,-0.7652,-1.7391,0.9739,2.6408,-6.5552,-80.8297,42.35,291.05,51.045097,13.776956,117.23,3.91,1.74,3.5,1.92,3,9,6,41.09
82807200,1.39825E+12,-1.1178,-0.657,-9.4922,-0.7652,-1.9478,0.9043,2.2771,-5.3692,-80.7292,42.35,291.05,51.045097,13.776956,117.23,3.91,1.74,3.5,1.92,3,9,6,41.09
82807200,1.39825E+12,-0.8139,-0.2255,-9.5216,-0.7652,-2.0173,0.8347,2.4179,-5.2769,-80.6437,42.35,291.05,51.045101,13.77694,117.23,3.91,1.74,3.5,1.92,3,9,6,41.09
82807300,1.39825E+12,-0.8531,-0.5099,-9.7374,-0.9043,-1.4608,0.626,2.8001,-5.7513,-80.6439,42.45,291.18,51.045101,13.77694,117.2,3.91,1.74,3.5,1.92,3,9,6,41.09
82807300,1.39825E+12,-0.6373,-1.0786,-9.1784,-1.8086,-1.1826,0.9739,4.4001,-5.5616,-80.5613,42.45,291.18,51.045101,13.77694,117.2,3.91,1.74,3.5,1.92,3,9,6,41.09
82807300,1.39825E+12,-0.8531,-0.4706,-10.2277,-1.7391,-0.9043,0.9739,3.5321,-5.8784,-80.6743,42.45,291.18,51.045101,13.77694,117.2,3.91,1.74,3.5,1.92,3,9,6,41.09
82807300,1.39825E+12,-0.0196,0.0784,-9.0215,-1.3913,-0.2782,0.8347,2.6162,-5.6857,-80.7773,42.45,291.18,51.045101,13.77694,117.2,3.91,1.74,3.5,1.92,3,9,6,41.09
82807300,1.39825E+12,-0.3039,-0.402,-9.8158,-1.3913,-1.6695,0.9739,3.6576,-5.4169,-80.7121,42.45,291.18,51.045104,13.776925,117.2,3.91,1.74,3.5,1.92,3,9,6,41.09
82807400,1.39825E+12,-0.9904,0.098,-10.1884,-1.0434,-1.5304,0.7652,2.3771,-5.9754,-80.8614,43.02,291.5,51.045104,13.776925,117.19,3.91,1.74,3.5,1.92,3,9,6,41.09
82807400,1.39825E+12,-1.9023,-0.4903,-10.159,-0.626,-1.6,0.8347,2.4672,-6.1287,-80.9478,43.02,291.5,51.045104,13.776925,117.19,3.91,1.74,3.5,1.92,3,9,6,41.09
82807400,1.39825E+12,-1.2649,-0.8237,-9.5707,-1.7391,-1.5304,0.9043,3.2888,-5.8788,-80.9036,43.02,291.5,51.045104,13.776925,117.19,3.91,1.74,3.5,1.92,3,9,6,41.09
82807400,1.39825E+12,-0.5589,-0.6668,-9.3451,-0.626,-1.1826,0.5565,3.0018,-5.0232,-80.9782,43.02,291.5,51.045104,13.776925,117.19,3.91,1.74,3.5,1.92,3,9,6,41.09
82807400,1.39825E+12,-0.9511,-0.7158,-9.9237,-0.9739,-2.5739,0.7652,3.1828,-5.0894,-81.0675,43.02,291.5,51.045108,13.776909,117.19,3.91,1.74,3.5,1.92,3,9,6,41.09
82807500,1.39825E+12,-0.9511,-0.2941,-9.8844,-0.9043,-2.713,0.9739,2.3878,-5.2259,-81.2588,43.07,291.37,51.045108,13.776909,117.18,3.91,1.74,3.5,1.92,3,9,6,41.09
82807500,1.39825E+12,-1.1865,-0.7158,-10.9141,-0.626,-4.0347,0.9043,2.9733,-5.5897,-81.292,43.07,291.37,51.045108,13.776909,117.18,3.91,1.74,3.5,1.92,3,9,6,41.09
82807500,1.39825E+12,-0.3824,-0.7452,-9.8452,-1.6695,-2.7826,1.113,3.8362,-4.5108,-81.3367,43.07,291.37,51.045108,13.776909,117.18,3.91,1.74,3.5,1.92,3,9,6,41.09
82807500,1.39825E+12,-0.6962,-0.3726,-9.6883,-1.0434,-2.9217,0.9739,2.8683,-5.9751,-81.49,43.07,291.37,51.045108,13.776909,117.18,3.91,1.74,3.5,1.92,3,9,6,41.15
82807500,1.39825E+12,-0.706,-0.147,-8.9921,-1.4608,-2.5739,0.9043,2.1052,-6.1538,-81.5341,43.07,291.37,51.045112,13.776893,117.18,3.91,1.74,3.5,1.92,3,9,6,41.15
82807600,1.39825E+12,-1.2257,-0.2941,-9.8158,-0.8347,-3.3391,0.6956,2.2653,-6.3357,-81.54,42.4099,290.25,51.045112,13.776893,117.17,3.91,1.74,3.5,1.92,3,9,6,41.15
82807600,1.39825E+12,-1.9514,-0.5001,-9.6295,-1.4608,-3.2695,0.7652,3.3304,-6.4802,-81.3682,42.4099,290.25,51.045112,13.776893,117.17,3.91,1.74,3.5,1.92,3,9,6,41.15
82807600,1.39825E+12,-1.5983,-0.4706,-10.3649,-1.1826,-2.713,0.626,3.3571,-6.2196,-81.3843,42.4099,290.25,51.045112,13.776893,117.17,3.91,1.74,3.5,1.92,3,9,6,41.15
82807600,1.39825E+12,-1.7062,-0.4314,-9.3353,-2.3652,-1.3217,0.7652,2.9758,-7.2111,-81.4352,42.4099,290.25,51.045112,13.776893,117.17,3.91,1.74,3.5,1.92,3,9,6,41.15
82807600,1.39825E+12,-0.8825,-0.5981,-9.3647,-1.7391,-2.0869,0.626,3.4897,-6.1062,-81.2708,42.4099,290.25,51.045116,13.776877,117.17,3.91,1.74,3.5,1.92,3,9,6,41.15
82807700,1.39825E+12,-1.2649,-0.3824,-9.7079,-2.3652,-2.0869,0.7652,2.3221,-6.1282,-81.4014,42.52,291.27,51.045116,13.776877,117.18,3.91,1.74,3.5,1.92,3,9,6,41.15
82807700,1.39825E+12,-0.9904,-0.6668,-10.8062,-2.0869,-1.3913,0.6956,2.2007,-5.6341,-81.4693,42.52,291.27,51.045116,13.776877,117.18,3.91,1.74,3.5,1.92,3,9,6,41.15
82807700,1.39825E+12,-0.6373,-0.353,-9.4726,-1.8086,-1.0434,0.5565,2.2709,-5.4644,-81.5201,42.52,291.27,51.045116,13.776877,117.18,3.91,1.74,3.5,1.92,3,9,6,41.15
82807700,1.39825E+12,-0.2843,0.049,-9.1686,-1.8086,-0.5565,0.3478,1.755,-5.9879,-81.5948,42.52,291.27,51.045116,13.776877,117.18,3.91,1.74,3.5,1.92,3,9,6,41.15
82807700,1.39825E+12,-0.7158,-0.2059,-9.7668,-1.8086,-1.0434,0.2782,1.4736,-5.8579,-81.566,42.52,291.27,51.04512,13.776861,117.18,1.74,1.45,0.96,1.92,3,9,6,41.15
82807800,1.39825E+12,-0.8629,0.0294,-9.5216,-0.9043,-1.6,0.3478,0.7535,-5.3133,-81.6743,43.04,290.65,51.04512,13.776861,117.19,1.74,1.45,0.96,1.92,3,9,6,41.15
82807800,1.39825E+12,-1.0002,-0.4804,-8.8352,-1.113,-0.9739,0.1391,2.0648,-5.0487,-81.5784,43.04,290.65,51.04512,13.776861,117.19,1.74,1.45,0.96,1.92,3,9,6,41.15
82807800,1.39825E+12,-1.4905,-0.3039,-10.159,-1.3913,-1.9478,0.1391,1.5793,-5.5373,-81.6686,43.04,290.65,51.04512,13.776861,117.19,1.74,1.45,0.96,1.92,3,9,6,41.15
82807800,1.39825E+12,-1.1865,-0.6177,-9.8943,-1.7391,-1.113,0,2.1279,-5.5187,-81.6258,43.04,290.65,51.04512,13.776861,117.19,1.74,1.45,0.96,1.92,3,9,6,41.15
82807800,1.39825E+12,-1.2845,-0.4412,-9.7766,-2.2956,-2.3652,0.0695,2.1093,-5.4413,-81.6261,43.04,290.65,51.045123,13.776845,117.19,3.91,1.74,3.5,1.92,3,9,6,41.15
82807900,1.39825E+12,-0.3432,-0.1274,-9.1294,-1.8086,-1.6,0.0695,0.8645,-4.8122,-81.7419,42.95,290.6,51.045123,13.776845,117.21,3.91,1.74,3.5,1.92,3,9,6,41.15
82807900,1.39825E+12,-0.5001,-0.5785,-9.7177,-0.7652,-1.4608,-0.1391,1.0905,-5.3419,-81.7939,42.95,290.6,51.045123,13.776845,117.21,3.91,1.74,3.5,1.92,3,9,6,41.15
82807900,1.39825E+12,-0.3922,-0.0098,-10.2375,-1.2521,-1.6695,-0.0695,1.2904,-4.9434,-81.9177,42.95,290.6,51.045123,13.776845,117.21,3.91,1.74,3.5,1.92,3,9,6,41.15
82807900,1.39825E+12,-0.402,0.0686,-9.8158,-1.0434,-2.0869,-0.2086,0.7912,-5.2019,-82.1232,42.95,290.6,51.045123,13.776845,117.21,3.91,1.74,3.5,1.92,3,9,6,41.15
82807900,1.39825E+12,-1.2845,-0.0882,-9.0019,-1.0434,-2.0869,-0.1391,1.5516,-6.4547,-82.1559,42.95,290.6,51.045127,13.776829,117.21,3.91,1.74,3.5,1.92,3,9,6,41.15
82808000,1.39825E+12,-1.0786,-0.049,-10.1492,-0.6956,-2.0173,-0.1391,1.114,-6.2995,-82.2961,42.93,290.23,51.045127,13.776829,117.22,3.91,1.74,3.5,1.92,3,9,6,41.15
82808000,1.39825E+12,-1.6179,-0.9021,-10.0021,-0.9043,-2.4347,-0.0695,2.2831,-6.2708,-82.2837,42.93,290.23,51.045127,13.776829,117.22,3.91,1.74,3.5,1.92,3,9,6,41.15
82808000,1.39825E+12,-0.7648,-0.657,-10.6395,-1.1826,-2.713,0.1391,2.354,-5.2242,-82.4559,42.93,290.23,51.045127,13.776829,117.22,3.91,1.74,3.5,1.92,3,9,6,41.15
82808000,1.39825E+12,-1.1276,0.0196,-9.0215,-1.0434,-1.9478,0,0.8907,-5.939,-82.7005,42.93,290.23,51.045127,13.776829,117.22,3.91,1.74,3.5,1.92,3,9,6,41.15
82808000,1.39825E+12,-0.2647,-0.1667,-9.6785,-1.1826,-1.9478,-0.1391,1.3994,-5.6814,-82.6887,42.93,290.23,51.045131,13.776813,117.22,3.91,1.74,3.5,1.92,3,9,6,41.15
82808100,1.39825E+12,-0.4314,-0.2059,-9.9629,-1.113,-1.7391,0.0695,1.992,-5.8202,-82.6716,42.82,289.95,51.045131,13.776813,117.24,3.91,1.74,3.5,1.92,3,9,6,41.15
82808100,1.39825E+12,-0.2059,-0.049,-9.453,-1.113,-2.0173,-0.1391,1.3176,-5.4438,-82.9325,42.82,289.95,51.045131,13.776813,117.24,3.91,1.74,3.5,1.92,3,9,6,41.15
82808100,1.39825E+12,-0.8825,-0.5687,-9.404,-0.7652,-2.3652,-0.0695,2.1673,-6.0046,-83.0881,42.82,289.95,51.045131,13.776813,117.24,3.91,1.74,3.5,1.92,3,9,6,41.15
82808100,1.39825E+12,-1.4512,0.2157,-8.9333,-1.2521,-2.0869,-0.1391,1.6741,-6.7116,-83.3452,42.82,289.95,51.045131,13.776813,117.24,3.91,1.74,3.5,1.92,3,9,6,41.15
82808100,1.39825E+12,-2.1671,-0.6177,-10.2571,-0.4869,-1.9478,-0.1391,1.5748,-6.3646,-83.5185,42.82,289.95,51.045134,13.776797,117.24,3.91,1.74,3.5,1.92,3,9,6,41.15
82808200,1.39825E+12,-0.804,0.1274,-10.208,-0.9043,-2.1565,-0.2086,1.2473,-5.8204,-83.7269,42.8,289.9,51.045134,13.776797,117.26,3.91,1.74,3.5,1.92,3,9,6,41.15
82808200,1.39825E+12,-1.0002,-0.5687,-10.5905,-0.9739,-2.226,-0.2086,1.597,-5.4912,-83.9245,42.8,289.9,51.045134,13.776797,117.26,3.91,1.74,3.5,1.92,3,9,6,41.15
82808200,1.39825E+12,0.1176,-0.706,-9.0313,-1.2521,-1.9478,-0.2086,2.7009,-4.7397,-84.0089,42.8,289.9,51.045134,13.776797,117.26,3.91,1.74,3.5,1.92,3,9,6,41.15
82808200,1.39825E+12,0.1372,-0.5491,-9.198,-1.0434,-1.5304,-0.2782,2.5338,-5.6654,-84.1515,42.8,289.9,51.045134,13.776797,117.26,3.91,1.74,3.5,1.92,3,9,6,41.15
82808200,1.39825E+12,-0.0294,-0.1176,-8.7862,-1.3217,-1.0434,-0.4173,1.7662,-5.3692,-84.4067,42.8,289.9,51.045138,13.77678,117.26,3.91,1.74,3.5,1.92,3,9,6,41.15
82808300,1.39825E+12,-0.7942,-0.049,-10.0904,-1.4608,-2.713,-0.4173,1.1119,-5.7911,-84.7232,43.18,289.68,51.045138,13.77678,117.27,3.91,1.74,3.5,1.92,3,9,6,41.15
82808300,1.39825E+12,-0.9119,-0.2647,-9.7472,-1.3217,-2.713,-0.2086,1.5312,-5.4827,-84.9441,43.18,289.68,51.045138,13.77678,117.27,3.91,1.74,3.5,1.92,3,9,6,41.15
82808300,1.39825E+12,-1.2845,-0.402,-9.9629,-1.113,-2.4347,-0.4869,1.7463,-5.951,-84.9631,43.18,289.68,51.045138,13.77678,117.27,3.91,1.74,3.5,1.92,3,9,6,41.15
82808300,1.39825E+12,-1.2649,-0.4804,-10.3453,-1.7391,-3.0608,-0.3478,2.3228,-5.9639,-84.9437,43.18,289.68,51.045138,13.77678,117.27,3.91,1.74,3.5,1.92,3,9,6,41.15
82808300,1.39825E+12,-0.6177,-0.5099,-9.7668,-2.226,-2.7826,-0.2086,2.3774,-4.7629,-85.0382,43.18,289.68,51.045142,13.776764,117.27,3.91,1.74,3.5,1.92,3,9,6,41.15
82808400,1.39825E+12,-0.5491,-0.3432,-9.2471,-1.8086,-2.4347,-0.4173,1.8283,-5.136,-85.1512,43.08,290.07,51.045142,13.776764,117.28,3.91,1.74,3.5,1.92,3,9,6,41.15
82808400,1.39825E+12,-0.3726,-0.098,-9.3549,-1.5304,-1.7391,-0.2086,1.3144,-5.1446,-85.2528,43.08,290.07,51.045142,13.776764,117.28,3.91,1.74,3.5,1.92,3,9,6,41.15
82808400,1.39825E+12,-0.7746,-0.1078,-9.1392,-0.7652,-1.5304,-0.3478,0.7159,-5.9552,-85.4166,43.08,290.07,51.045142,13.776764,117.28,3.91,1.74,3.5,1.92,3,9,6,41.15
82808400,1.39825E+12,-1.3042,-0.2255,-9.6197,-0.9043,-2.0173,-0.2782,1.2148,-5.631,-85.3988,43.08,290.07,51.045142,13.776764,117.28,3.91,1.74,3.5,1.92,3,9,6,41.15
82808400,1.39825E+12,-1.5493,-0.3137,-9.6491,-1.3913,-1.8782,-0.3478,1.8475,-5.6384,-85.2822,43.08,290.07,51.045146,13.776747,117.28,3.91,1.74,3.5,1.92,3,9,6,41.15
82808500,1.39825E+12,-0.9511,-0.5197,-10.1688,-1.5304,-2.226,-0.1391,1.9938,-4.5396,-85.2338,43.6,289.73,51.045146,13.776747,117.28,3.91,1.74,3.5,1.92,3,9,6,41.15
82808500,1.39825E+12,-0.3922,-0.2157,-9.2863,-1.2521,-0.2782,-0.4869,0.9027,-4.3801,-85.3533,43.6,289.73,51.045146,13.776747,117.28,3.91,1.74,3.5,1.92,3,9,6,41.15
82808500,1.39825E+12,-0.1372,-0.6471,-9.2667,-1.0434,-0.8347,-0.3478,1.5916,-3.9311,-85.3589,43.6,289.73,51.045146,13.776747,117.28,3.91,1.74,3.5,1.92,3,9,6,41.15
82808500,1.39825E+12,0.098,-0.1667,-9.149,-0.8347,-0.0695,-0.2086,1.5271,-3.3646,-85.5315,43.6,289.73,51.045146,13.776747,117.28,3.91,1.74,3.5,1.92,3,9,6,41.15
82808500,1.39825E+12,-0.402,-0.3628,-9.8648,-0.7652,-1.0434,-0.4173,1.4935,-3.1878,-85.83,43.6,289.73,51.045149,13.776731,117.28,3.91,1.74,3.5,1.92,3,9,6,41.15
82808600,1.39825E+12,-0.0588,-0.1765,-8.8352,-1.8086,-0.2782,-0.2086,1.8312,-2.9536,-86.0286,43.62,290.01,51.045149,13.776731,117.28,3.91,1.74,3.5,1.92,3,9,6,41.15
82808600,1.39825E+12,-0.3039,-0.0196,-10.4238,-1.3913,-1.6695,-0.2782,1.748,-2.6119,-86.236,43.62,290.01,51.045149,13.776731,117.28,3.91,1.74,3.5,1.92,3,9,6,41.15
82808600,1.39825E+12,-0.1274,-0.0882,-9.8158,-1.3913,-0.1391,-0.2086,1.1382,-2.6065,-86.5569,43.62,290.01,51.045149,13.776731,117.28,3.91,1.74,3.5,1.92,3,9,6,41.15
82808600,1.39825E+12,-0.2255,-0.2745,-8.7862,-0.626,-0.9739,-0.4173,0.7344,-2.4934,-86.8498,43.62,290.01,51.045149,13.776731,117.28,3.91,1.74,3.5,1.92,3,9,6,41.15
82808600,1.39825E+12,-0.5491,-0.5295,-10.6003,-1.113,-1.6,-0.5565,2.0379,-2.244,-87.0156,43.62,290.01,51.045153,13.776714,117.28,3.91,1.74,3.5,1.92,3,9,6,41.15
82808700,1.39825E+12,-0.657,-0.3137,-9.855,-1.8782,-1.7391,-0.2782,1.951,-2.5943,-87.2534,43.61,290.12,51.045153,13.776714,117.27,3.91,1.74,3.5,1.92,3,9,6,41.15
82808700,1.39825E+12,-0.0686,-0.7158,-9.6589,-1.113,-1.6,-0.2086,2.0797,-1.8013,-87.3947,43.61,290.12,51.045153,13.776714,117.27,3.91,1.74,3.5,1.92,3,9,6,41.15
82808700,1.39825E+12,-0.6864,-0.5197,-10.2571,-0.9739,-2.713,-0.4173,1.5756,-2.3267,-87.6327,43.61,290.12,51.045153,13.776714,117.27,3.91,1.74,3.5,1.92,3,9,6,41.15
82808700,1.39825E+12,0.0588,-0.2647,-9.502,-1.8782,-1.4608,-0.4173,1.9741,-2.3925,-87.7772,43.61,290.12,51.045153,13.776714,117.27,3.91,1.74,3.5,1.92,3,9,6,41.15
82808700,1.39825E+12,-0.2647,0.1078,-10.512,-2.2956,-1.8782,-0.2782,1.7376,-2.0641,-88.0225,43.61,290.12,51.045157,13.776698,117.27,1.74,1.45,0.96,1.92,3,9,6,41.15
82808800,1.39825E+12,-0.5589,-0.1274,-10.4238,-2.0173,-2.2956,-0.2086,1.318,-2.6483,-88.3102,43.59,290.55,51.045157,13.776698,117.25,1.74,1.45,0.96,1.92,3,9,6,41.15
82808800,1.39825E+12,-0.804,-0.2353,-9.6197,-1.8086,-1.7391,-0.2086,1.6019,-3.0636,-88.4843,43.59,290.55,51.045157,13.776698,117.25,1.74,1.45,0.96,1.92,3,9,6,41.15
82808800,1.39825E+12,-0.3432,0.2255,-9.8158,-1.8086,-1.3913,-0.1391,0.7357,-2.8096,-88.7031,43.59,290.55,51.045157,13.776698,117.25,1.74,1.45,0.96,1.92,3,9,6,41.15
82808800,1.39825E+12,-0.1765,0.1667,-10.0806,-1.6,-0.626,-0.4173,0.6531,-3.2162,-88.871,43.59,290.55,51.045157,13.776698,117.25,1.74,1.45,0.96,1.92,3,9,6,41.15
82808800,1.39825E+12,-0.1863,0.147,-9.7766,-1.7391,-1.113,-0.2782,0.6671,-2.8206,-89.0451,43.59,290.55,51.045161,13.776682,117.25,3.91,1.74,3.5,1.92,3,9,6,41.15
82808900,1.39825E+12,-0.2941,-0.3726,-10.5218,-1.8782,-0.8347,-0.4869,1.723,-2.4845,-89.1521,44.18,290.4,51.045161,13.776682,117.22,3.91,1.74,3.5,1.92,3,9,6,41.15
82808900,1.39825E+12,-0.0294,-0.049,-9.7962,-1.9478,-1.3217,-0.2086,1.5534,-1.9813,-89.283,44.18,290.4,51.045161,13.776682,117.22,3.91,1.74,3.5,1.92,3,9,6,41.15
82808900,1.39825E+12,0.451,-0.0588,-9.149,-1.5304,0.2782,-0.5565,0.9312,-2.4237,-89.4861,44.18,290.4,51.045161,13.776682,117.22,3.91,1.74,3.5,1.92,3,9,6,41.15
82808900,1.39825E+12,0.5197,-0.0392,-9.0705,-1.5304,-0.5565,-0.4869,1.3428,-1.9664,-89.6614,44.18,290.4,51.045161,13.776682,117.22,3.91,1.74,3.5,1.92,3,9,6,41.15
82808900,1.39825E+12,-0.3628,0.3235,-9.4726,-2.3652,-2.3652,-0.4869,1.0602,-2.6304,-89.8307,44.18,290.4,51.045165,13.776665,117.22,3.91,1.74,3.5,1.93,3,9,6,41.15
82809000,1.39825E+12,-0.1863,-0.6373,-10.6101,-2.226,-1.9478,-0.4173,1.8491,-1.9032,-90.0025,44.52,290.54,51.045165,13.776665,117.21,3.91,1.74,3.5,1.93,3,9,6,41.15
82809000,1.39825E+12,-0.2059,-0.6864,-9.6589,-1.6695,-2.0869,-0.2782,1.7049,-2.0902,-90.2822,44.52,290.54,51.045165,13.776665,117.21,3.91,1.74,3.5,1.93,3,9,6,41.15
82809000,1.39825E+12,-0.0098,-0.4216,-9.6883,-1.1826,-0.9043,-0.5565,1.2535,-2.2044,-90.5804,44.52,290.54,51.045165,13.776665,117.21,3.91,1.74,3.5,1.93,3,9,6,41.15
82809000,1.39825E+12,-0.3137,0.1176,-9.757,-0.6956,-2.6434,-0.4869,0.2448,-2.4585,-90.8602,44.52,290.54,51.045165,13.776665,117.21,3.91,1.74,3.5,1.93,3,9,6,41.15
82809000,1.39825E+12,-0.1274,0.1176,-9.9727,-1.0434,-2.0869,-0.6956,0.1233,-2.2362,-91.1118,44.52,290.54,51.045169,13.776648,117.21,3.91,1.74,3.5,1.93,3,9,6,41.15
82809100,1.39825E+12,0.2549,0.3922,-10.5611,-1.6695,-4.0347,-0.626,0.3205,-1.2963,-91.2911,44.94,290.62,51.045169,13.776648,117.19,3.91,1.74,3.5,1.93,3,9,6,41.15
82809100,1.39825E+12,0.2549,-0.2157,-9.8256,-1.6,-3.2695,-0.7652,0.9427,-1.3714,-91.4297,44.94,290.62,51.045169,13.776648,117.19,3.91,1.74,3.5,1.93,3,9,6,41.15
82809100,1.39825E+12,0.098,-0.5491,-8.2468,-1.113,-2.4347,-0.6956,1.1894,-2.0816,-91.6071,44.94,290.62,51.045169,13.776648,117.19,3.91,1.74,3.5,1.93,3,9,6,41.15
82809100,1.39825E+12,-1.4611,-0.1274,-10.1884,-1.5304,-2.6434,-0.7652,0.3534,-4.1518,-91.6698,44.94,290.62,51.045169,13.776648,117.19,3.91,1.74,3.5,1.93,3,9,6,41.15
82809100,1.39825E+12,-0.5197,0.3922,-10.5513,-1.8086,-4.1739,-0.6956,-0.1691,-3.2347,-91.5242,44.94,290.62,51.045173,13.776632,117.19,3.91,1.74,3.5,1.93,3,9,6,41.15
82809200,1.39825E+12,-1.0492,0.1961,-10.3944,-2.0869,-5.0782,-0.6956,0.1771,-3.8446,-91.5168,44.87,291.06,51.045173,13.776632,117.17,3.91,1.74,3.5,1.93,3,9,6,41.15
82809200,1.39825E+12,-1.1865,-0.2647,-9.8354,-2.0173,-3.4782,-0.7652,1.3037,-4.9637,-91.2097,44.87,291.06,51.045173,13.776632,117.17,3.91,1.74,3.5,1.93,3,9,6,41.15
82809200,1.39825E+12,-0.1863,-0.2941,-8.5018,-1.2521,-2.9217,-0.9043,0.7014,-3.092,-91.1563,44.87,291.06,51.045173,13.776632,117.17,3.91,1.74,3.5,1.93,3,9,6,41.15
82809200,1.39825E+12,-0.6373,-0.402,-9.2863,-0.4173,-2.1565,-0.9739,0.2221,-4.1883,-91.0471,44.87,291.06,51.045173,13.776632,117.17,3.91,1.74,3.5,1.93,3,9,6,41.15
82809200,1.39825E+12,-1.4611,-0.4118,-10.6689,-1.6695,-4.5217,-0.6956,0.9466,-4.4004,-90.8239,44.87,291.06,51.045177,13.776615,117.17,3.91,1.74,3.5,1.93,3,9,6,41.15
82809300,1.39825E+12,-1.2453,0.049,-10.1296,-2.9913,-3.6173,-0.6956,0.7289,-4.7564,-90.7022,44.7299,291.65,51.045177,13.776615,117.15,3.91,1.74,3.5,1.93,3,9,6,41.15
82809300,1.39825E+12,-1.4512,-0.1568,-10.4728,-1.6695,-3.826,-0.5565,0.8122,-5.2703,-90.3154,44.7299,291.65,51.045177,13.776615,117.15,3.91,1.74,3.5,1.93,3,9,6,41.15
82809300,1.39825E+12,-0.2059,-0.4903,-7.3447,-0.4869,-0.9739,-0.7652,1.0568,-4.577,-89.9049,44.7299,291.65,51.045177,13.776615,117.15,3.91,1.74,3.5,1.93,3,9,6,41.15
82809300,1.39825E+12,-0.5785,-0.402,-9.1882,-0.5565,-1.8782,-1.1826,0.8686,-4.4853,-89.5206,44.7299,291.65,51.045177,13.776615,117.15,3.91,1.74,3.5,1.93,3,9,6,41.15
82809300,1.39825E+12,-1.5101,-0.2353,-8.9823,-1.8086,-3.2695,-0.5565,0.0296,-4.8964,-89.168,44.7299,291.65,51.045181,13.776599,117.15,3.91,1.74,3.5,1.93,3,9,6,41.15
82809400,1.39825E+12,-1.4611,0.7354,-10.2473,-2.3652,-1.8782,-0.7652,-0.524,-4.5443,-88.975,44.67,291.58,51.045181,13.776599,117.14,3.91,1.74,3.5,1.93,3,9,6,41.15
82809400,1.39825E+12,-0.7452,-0.049,-9.1784,-1.3217,-1.4608,-0.6956,0.1175,-4.431,-88.5948,44.67,291.58,51.045181,13.776599,117.14,3.91,1.74,3.5,1.93,3,9,6,41.15
82809400,1.39825E+12,0.3922,-0.8825,-6.3641,-0.6956,1.2521,-0.9739,1.8319,-5.3082,-88.2472,44.67,291.58,51.045181,13.776599,117.14,3.91,1.74,3.5,1.93,3,9,6,41.15
82809400,1.39825E+12,-1.9317,-0.3432,-11.3455,-0.4869,-4.1043,-0.9043,1.009,-5.7804,-88.0199,44.67,291.58,51.045181,13.776599,117.14,3.91,1.74,3.5,1.93,3,9,6,41.15
82809400,1.39825E+12,-1.5689,0.5883,-9.149,-2.0869,-1.3913,-0.7652,0.2923,-5.8489,-87.8741,44.67,291.58,51.045185,13.776582,117.14,3.91,1.74,3.5,1.93,3,9,6,41.15
82809500,1.39825E+12,-1.5199,0.0294,-11.0906,-1.8782,-2.9217,-0.3478,0.7748,-5.5326,-87.7677,44.56,291.54,51.045185,13.776582,117.12,3.91,1.74,3.5,1.93,3,9,6,41.15
82809500,1.39825E+12,0,-0.6766,-7.6487,-0.9739,-0.626,-0.7652,1.6904,-4.7471,-87.539,44.56,291.54,51.045185,13.776582,117.12,3.91,1.74,3.5,1.93,3,9,6,41.15
82809500,1.39825E+12,-0.6373,-0.4216,-9.0313,0.6956,-1.7391,-1.1826,1.2909,-5.1956,-87.4762,44.56,291.54,51.045185,13.776582,117.12,3.91,1.74,3.5,1.93,3,9,6,41.15
82809500,1.39825E+12,-2.0984,-0.353,-9.5314,-0.9739,-1.7391,-0.7652,-0.0114,-5.8749,-87.5257,44.56,291.54,51.045185,13.776582,117.12,3.91,1.74,3.5,1.93,3,9,6,41.18
82809500,1.39825E+12,-2.0788,0.0392,-11.2279,-1.113,-3.2,-0.7652,-0.3708,-5.6856,-87.4539,44.56,291.54,51.045189,13.776566,117.12,3.91,1.74,3.5,1.93,3,9,6,41.18
82809600,1.39825E+12,-0.5393,-0.353,-9.0411,-1.4608,-1.3913,-1.0434,1.025,-4.8578,-87.1473,44.58,291.4,51.045189,13.776566,117.12,3.91,1.74,3.5,1.93,3,9,6,41.18
82809600,1.39825E+12,0.2059,0.2353,-8.492,-0.9043,-1.0434,-1.3217,0.7635,-4.4491,-87.0268,44.58,291.4,51.045189,13.776566,117.12,3.91,1.74,3.5,1.93,3,9,6,41.18
82809600,1.39825E+12,-1.4807,-0.3432,-9.7766,1.113,-3.1304,-1.3217,0.8488,-5.922,-86.891,44.58,291.4,51.045189,13.776566,117.12,3.91,1.74,3.5,1.93,3,9,6,41.18
82809600,1.39825E+12,-1.8631,-0.2255,-11.0612,-1.5304,-4.3826,-1.1826,0.543,-6.1152,-86.7937,44.58,291.4,51.045189,13.776566,117.12,3.91,1.74,3.5,1.93,3,9,6,41.18
82809600,1.39825E+12,-1.5787,0.9511,-11.473,-2.713,-4.6608,-1.2521,0.779,-5.7997,-86.6589,44.58,291.4,51.045193,13.776549,117.12,3.91,1.74,3.5,1.93,3,9,6,41.18
82809600,1.39825E+12,-1.0492,0.0588,-10.5218,-1.7391,-3.6173,-1.2521,0.523,-5.2336,-86.5868,44.53,291.35,51.045193,13.776549,117.12,3.91,1.74,3.5,1.93,3,9,6,41.18
82809700,1.39825E+12,-0.1667,-1.1767,-8.2076,0.2086,-1.0434,-1.4608,1.3955,-5.2424,-86.3767,44.53,291.35,51.045193,13.776549,117.12,3.91,1.74,3.5,1.93,3,9,6,41.18
82809700,1.39825E+12,-2.5201,-0.5099,-10.2375,0.0695,-2.7826,-1.7391,0.6059,-6.1089,-86.3574,44.53,291.35,51.045193,13.776549,117.12,3.91,1.74,3.5,1.93,3,9,6,41.18
82809700,1.39825E+12,-3.1281,0.0784,-11.2377,-2.6434,-3.6173,-1.113,-0.1965,-6.4286,-86.3334,44.53,291.35,51.045193,13.776549,117.12,3.91,1.74,3.5,1.93,3,9,6,41.18
82809700,1.39825E+12,-1.6179,0.4804,-10.1786,-2.0869,-3.1304,-0.7652,0.2955,-6.4307,-86.178,44.53,291.35,51.045197,13.776533,117.12,1.74,1.45,0.96,1.93,3,9,6,41.18
82809700,1.39825E+12,0.0784,-0.4314,-6.5798,-1.3217,1.113,-0.9043,0.3456,-5.3215,-86.0286,44.57,291.29,51.045197,13.776533,117.1,1.74,1.45,0.96,1.93,3,9,6,41.18
82809800,1.39825E+12,-1.3042,-0.7354,-9.3353,0.5565,-0.9739,-1.6695,0.3054,-6.4043,-85.8644,44.57,291.29,51.045197,13.776533,117.1,1.74,1.45,0.96,1.93,3,9,6,41.18
82809800,1.39825E+12,-0.755,0.6962,-8.6685,-0.626,-1.5304,-1.3217,-1.1096,-5.7305,-85.9232,44.57,291.29,51.045197,13.776533,117.1,1.74,1.45,0.96,1.93,3,9,6,41.18
